{"type":"FeatureCollection","totalFeatures":61,"features":[{"type":"Feature","id":"university.1","geometry":{"type":"Point","coordinates":[664971.2674644969,1520376.8157974307]},"geometry_name":"the_geom","properties":{"name":"สถาบันเทคโนโลยีปทุมวัน","dcode":"1007","type":"1","address":"833 ถ.พระราม 1  เขตปทุมวัน กรุงเทพฯ 10330","tel":"0 2219 3833-38","fax":"0 2219 3872","web":"www.ptwit.ac.th"}},{"type":"Feature","id":"university.2","geometry":{"type":"Point","coordinates":[665519.7265278143,1519718.7378744523]},"geometry_name":"the_geom","properties":{"name":"มหาวิทยาลัยเทคโนโลยีราชมงคลตะวันออก(วิทยาเขตอุเทนถวาย)","dcode":"1007","type":"1","address":"225 ถ.พญาไท แขวงวังใหม่ เขตปทุมวัน กรุงเทพฯ 10330","tel":"0 2252 7029, 0 2252 2736","fax":"0 2252 7580","web":"www.uthen.rmutto.ac.th"}},{"type":"Feature","id":"university.3","geometry":{"type":"Point","coordinates":[665544.4097445112,1519341.441582498]},"geometry_name":"the_geom","properties":{"name":"จุฬาลงกรณ์มหาวิทยาลัย","dcode":"1007","type":"2","address":"254 ถ.พญาไท เขตปทุมวัน กรุงเทพฯ 10330","tel":"0 2215 0871-3","fax":"0 2215 4804","web":"www.chula.ac.th"}},{"type":"Feature","id":"university.4","geometry":{"type":"Point","coordinates":[670401.8336672543,1528391.0389709892]},"geometry_name":"the_geom","properties":{"name":"มหาวิทยาลัยราชภัฏจันทรเกษม","dcode":"1030","type":"1","address":"39/1 ถ.รัชดาภิเษก แขวงลาดยาว เขตจตุจักร กรุงเทพฯ 10900","tel":"0 2942 6900-99, 0 2541 6060","fax":"0 2541 7113","web":"www.chandra.ac.th"}},{"type":"Feature","id":"university.5","geometry":{"type":"Point","coordinates":[661282.696253007,1518842.9646613942]},"geometry_name":"the_geom","properties":{"name":"มหาวิทยาลัยราชภัฏธนบุรี","dcode":"1015","type":"1","address":"172 ถ.อิสรภาพ แขวงวัดกัลยาณ์ เขตธนบุรี กรุงเทพฯ 10600","tel":"0 2890 1801-8","fax":"0 2466 6776","web":"www.dru.ac.th"}},{"type":"Feature","id":"university.6","geometry":{"type":"Point","coordinates":[661127.9141566982,1518639.2340654815]},"geometry_name":"the_geom","properties":{"name":"มหาวิทยาลัยราชภัฏบ้านสมเด็จเจ้าพระยา","dcode":"1015","type":"1","address":"1061 ซ.อิสรภาพ 15 ถ.อิสรภาพ แขวงหิรัญรูจี เขตธนบุรี กรุงเทพฯ 10600","tel":"0 2473 7000","fax":"0 2466 6539","web":"www.bsru.ac.th"}},{"type":"Feature","id":"university.7","geometry":{"type":"Point","coordinates":[671807.5853033671,1534918.5087975108]},"geometry_name":"the_geom","properties":{"name":"มหาวิทยาลัยราชภัฏพระนคร","dcode":"1005","type":"1","address":"3 หมู่ 6 ถ.แจ้งวัฒนะ แขวงอนุสาวรีย์ เขตบางเขน กรุงเทพฯ 10220","tel":"0 2544 8000","fax":"0 2521 7909","web":"www.pnru.ac.th"}},{"type":"Feature","id":"university.8","geometry":{"type":"Point","coordinates":[663291.7611272917,1523421.2907007507]},"geometry_name":"the_geom","properties":{"name":"มหาวิทยาลัยราชภัฏสวนดุสิต","dcode":"1002","type":"1","address":"295 ถ.ราชสีมา เขตดุสิต กรุงเทพฯ 10300","tel":"0 2244 5000","fax":"0 2243 0457","web":"www.dusit.ac.th"}},{"type":"Feature","id":"university.9","geometry":{"type":"Point","coordinates":[662617.5988789389,1522872.8054224253]},"geometry_name":"the_geom","properties":{"name":"มหาวิทยาลัยเทคโนโลยีราชมงคลพระนคร(วิทยาเขตเทเวศร์)","dcode":"1002","type":"1","address":"399 ถ.สามเสน แขวงวชิรพยาบาล เขตดุสิต กทม. 10300","tel":"02-665-3777","fax":"02-665-3888","web":"www.rmutp.ac.th"}},{"type":"Feature","id":"university.10","geometry":{"type":"Point","coordinates":[663204.8448128509,1523602.3990948447]},"geometry_name":"the_geom","properties":{"name":"มหาวิทยาลัยราชภัฏสวนสุนันทา","dcode":"1002","type":"1","address":"1 ถ.อู่ทองนอก แขวงวชิระ เขตดุสิต กรุงเทพฯ 10300?","tel":"0 2160 1111","fax":"0 2160 1010","web":"www.ssru.ac.th"}},{"type":"Feature","id":"university.11","geometry":{"type":"Point","coordinates":[663724.3124818815,1521919.2674606466]},"geometry_name":"the_geom","properties":{"name":"มหาวิทยาลัยเทคโนโลยีราชมงคลพระนคร(วิทยาเขตพณิชยการพระนคร)","dcode":"1002","type":"1","address":"88 ถ.พิษณุโลก แขวงสวนจิตรลดา เขตดุสิต กรุงเทพมหานคร 10300","tel":"02-665-3777","fax":"02-665-3888","web":"www.rmutp.ac.th"}},{"type":"Feature","id":"university.12","geometry":{"type":"Point","coordinates":[663695.7373472955,1521853.3857647926]},"geometry_name":"the_geom","properties":{"name":"มหาวิทยาลัยเทคโนโลยีราชมงคลพระนคร(วิทยาเขตชุมพรเขตอุดมศักดิ์)","dcode":"1002","type":"1","address":"517 ถ.นครสวรรค์ แขวงสวนจิตรลดา เขตดุสิต","tel":"02-665-3777","fax":"02-665-3888","web":"www.rmutp.ac.th"}},{"type":"Feature","id":"university.13","geometry":{"type":"Point","coordinates":[662462.691531318,1523103.3780066825]},"geometry_name":"the_geom","properties":{"name":"มหาวิทยาลัยเทคโนโลยีราชมงคลพระนคร(วิทยาเขตโชติเวช)","dcode":"1002","type":"1","address":"168 ถ.ศรีอยุธยา แขวงวชิรพยาบาล เขตดุสิต กทม. 10300","tel":"02-665-3777","fax":"02-665-3888","web":"www.rmutp.ac.th"}},{"type":"Feature","id":"university.14","geometry":{"type":"Point","coordinates":[666364.9067613103,1516654.768627866]},"geometry_name":"the_geom","properties":{"name":"มหาวิทยาลัยเทคโนโลยีราชมงคลกรุงเทพ(วิทยาเขตเทคนิคกรุงเทพ)","dcode":"1028","type":"1","address":"2 ถนนนางลิ้นจี่ แขวงทุ่งมหาเมฆ  เขตสาทร กรุงเทพ 10120","tel":"0-2287-9600","fax":"0-2287-9600","web":"www.rmutk.ac.th"}},{"type":"Feature","id":"university.15","geometry":{"type":"Point","coordinates":[666272.2793105365,1516995.0326061477]},"geometry_name":"the_geom","properties":{"name":"มหาวิทยาลัยเทคโนโลยีราชมงคลกรุงเทพ(วิทยาเขตบพิตรพิมุข มหาเมฆ)","dcode":"1028","type":"1","address":"878  อาคารสงเคราะห์  ถ.นางลิ้นจี่  แขวงทุ่งมหาเมฆ เขตสาทร","tel":"0-2287-9600","fax":"0-2287-9600","web":"www.rmutk.ac.th"}},{"type":"Feature","id":"university.16","geometry":{"type":"Point","coordinates":[663794.1687989689,1516781.5891701337]},"geometry_name":"the_geom","properties":{"name":"มหาวิทยาลัยเทคโนโลยีราชมงคลกรุงเทพ(วิทยาเขตพระนครใต้)","dcode":"1028","type":"1","address":"1635 ถ.เจริญกรุง แขวงยานนาวา เขตสาทร","tel":"0-2287-9600","fax":"0-2287-9600","web":"www.rmutk.ac.th"}},{"type":"Feature","id":"university.17","geometry":{"type":"Point","coordinates":[662043.5764936144,1519976.51173113]},"geometry_name":"the_geom","properties":{"name":"มหาวิทยาลัยเทคโนโลยีราชมงคลรัตนโกสินทร์(วิทยาเขตเพาะช่าง)","dcode":"1001","type":"1","address":"86 ถ.ตรีเพชร แขวงวังบูรพาภิรมย์ เขต พระนคร กรุงเทพมหานคร 10200","tel":"0-2623-8790 � 5","fax":"0-2223-4014","web":"www.pohchang.rmutr.ac.th"}},{"type":"Feature","id":"university.18","geometry":{"type":"Point","coordinates":[662417.8729720622,1519706.5579491442]},"geometry_name":"the_geom","properties":{"name":"มหาวิทยาลัยเทคโนโลยีราชมงคลรัตนโกสินทร์(วิทยาเขตบพิตรพิมุข จักรวรรดิ)","dcode":"1013","type":"1","address":"264 ถนนจักรวรรดิ แขวงจักรวรรดิ เขตสัมพันธวงศ์ กรุงเทพฯ 10100","tel":"02-226-5925-26","fax":"02-226-4879","web":"www.rmutr.ac.th"}},{"type":"Feature","id":"university.19","geometry":{"type":"Point","coordinates":[663541.0317314205,1528169.8854154504]},"geometry_name":"the_geom","properties":{"name":"มหาวิทยาลัยเทคโนโลยีราชมงคลพระนคร(วิทยาเขตพระนครเหนือ)","dcode":"1029","type":"1","address":"1381 ถ.พิบูลสงคราม แขวงบางซื่อ เขตบางซื่อ กทม. 10800","tel":"02-665-3777","fax":"02-665-3888","web":"www.rmutp.ac.th"}},{"type":"Feature","id":"university.20","geometry":{"type":"Point","coordinates":[668309.8073752968,1523762.449006849]},"geometry_name":"the_geom","properties":{"name":"มหาวิทยาลัยเทคโนโลยีราชมงคลตะวันออก(วิทยาเขตจักรพงษ์ภูวนารถ)","dcode":"1026","type":"1","address":"122/41 ถ.วิภาวดีรังสิต แขวงดินแดง เขตดินแดง กรุงเทพฯ 10400","tel":"0 2692 2360-4","fax":"0 2277 3693","web":"www.cpc.rmutto.ac.th"}},{"type":"Feature","id":"university.21","geometry":{"type":"Point","coordinates":[675008.8071508321,1521419.8532323162]},"geometry_name":"the_geom","properties":{"name":"มหาวิทยาลัยรามคำแหง 1 (หัวหมาก)","dcode":"1006","type":"1","address":"ถนนรามคำแหง แขวงหัวหมาก เขตบางกะปิ","tel":"0 2310 8000","fax":"0 2310 8022","web":"www.ru.ac.th"}},{"type":"Feature","id":"university.22","geometry":{"type":"Point","coordinates":[682130.8829901754,1511581.4114241763]},"geometry_name":"the_geom","properties":{"name":"มหาวิทยาลัยรามคำแหง 2 (วิทยาเขตบางนา)","dcode":"1032","type":"1","address":"ถนนรามคำแหง 2 วิทยาเขตบางนา แขวงประเวศ เขตประเวศ","tel":"0 2310 8000","fax":"0 2310 8022","web":"www.ru.ac.th"}},{"type":"Feature","id":"university.23","geometry":{"type":"Point","coordinates":[669454.2487416688,1531243.026347116]},"geometry_name":"the_geom","properties":{"name":"มหาวิทยาลัยเกษตรศาสตร์ (บางเขน)","dcode":"1030","type":"1","address":"50 ถ.พหลโยธิน แขวงลาดยาว เขตจตุจักร กรุงเทพฯ 10900","tel":"0 2942 8200-45","fax":"0 2942 8151-3","web":"www.ku.ac.th"}},{"type":"Feature","id":"university.24","geometry":{"type":"Point","coordinates":[661180.6566393587,1521312.5860882045]},"geometry_name":"the_geom","properties":{"name":"มหาวิทยาลัยธรรมศาสตร์ (ท่าพระจันทร์)","dcode":"1001","type":"1","address":"2 ถ.พระจันทร์ แขวงพระบรมมหาราชวัง เขตพระนคร กรุงเทพฯ 10200","tel":"0 2613 3333","fax":"0 2224 8105","web":"www.tu.ac.th"}},{"type":"Feature","id":"university.25","geometry":{"type":"Point","coordinates":[661118.1536946401,1520946.7230169626]},"geometry_name":"the_geom","properties":{"name":"มหาวิทยาลัยศิลปากร (วังท่าพระ)","dcode":"1001","type":"1","address":"31 ถ.หน้าพระลาน แขวงพระบรมมหาราชวัง เขตพระนคร กรุงเทพฯ 10200","tel":"0 2623 6115-22","fax":"0 2225 7258","web":"www.su.ac.th"}},{"type":"Feature","id":"university.26","geometry":{"type":"Point","coordinates":[669307.1111813429,1520020.5158734045]},"geometry_name":"the_geom","properties":{"name":"มหาวิทยาลัยศรีนครินทรวิโรฒ (ประสานมิตร)","dcode":"1039","type":"1","address":"114 สุขุมวิท 23(ประสานมิตร) แขวงคลองเตยเหนือ เขตวัฒนา กรุงเทพฯ 10110","tel":"0 2258 3996","fax":"0-2258-0311","web":"www.swu.ac.th"}},{"type":"Feature","id":"university.27","geometry":{"type":"Point","coordinates":[661552.9425981117,1509388.1741494932]},"geometry_name":"the_geom","properties":{"name":"มหาวิทยาลัยเทคโนโลยีพระจอมเกล้าธนบุรี (วิทยาเขตทุ่งครุ)","dcode":"1049","type":"2","address":"126 ถ.ประชาอุทิศ (สุขสวัสดิ์ 48) แขวงบางมด เขตทุ่งครุ กรุงเทพฯ 10140","tel":"0 2427 0039","fax":"0 2427 8595","web":"www.kmutt.ac.th"}},{"type":"Feature","id":"university.28","geometry":{"type":"Point","coordinates":[663702.345298858,1528267.3186036306]},"geometry_name":"the_geom","properties":{"name":"สถาบันเทคโนโลยีพระจอมเกล้าพระนครเหนือ","dcode":"1029","type":"1","address":"1518 ถ.พิบูลสงคราม เขตบางซื่อ กรุงเทพฯ 10800","tel":"0 2913 2500","fax":"0 2587 4350","web":"www.kmutnb.ac.th"}},{"type":"Feature","id":"university.29","geometry":{"type":"Point","coordinates":[692407.0749868224,1518523.8953144813]},"geometry_name":"the_geom","properties":{"name":"สถาบันเทคโนโลยีพระจอมเกล้าเจ้าคุณทหารลาดกระบัง","dcode":"1011","type":"1","address":"3 หมู่ 2 ถ.ฉลองกรุง แขวงลำปะทิว เขตลาดกระบัง กรุงเทพฯ 10520","tel":"0 2329 8000","fax":"0 2326 4997","web":"www.kmitl.ac.th"}},{"type":"Feature","id":"university.30","geometry":{"type":"Point","coordinates":[678640.7521674491,1522766.7057587595]},"geometry_name":"the_geom","properties":{"name":"สถาบันบัณฑิตพัฒนบริหารศาสตร์","dcode":"1006","type":"1","address":"118 หมู่ 3 ถ.เสรีไทย แขวงคลองจั่น เขตบางกะปิ กรุงเทพฯ 10240","tel":"0 2727 3000","fax":"0 2375 8798","web":"www.nida.ac.th"}},{"type":"Feature","id":"university.31","geometry":{"type":"Point","coordinates":[675998.9265734339,1521140.7989107794]},"geometry_name":"the_geom","properties":{"name":"มหาวิทยาลัยอัสสัมชัญ","dcode":"1006","type":"3","address":"592 ถ.รามคำแหง 24 แขวงหัวหมาก เขตบางกะปิ กรุงเทพฯ  10240","tel":"0 2300 4543-62","fax":"0 2300 4563","web":"www.au.edu"}},{"type":"Feature","id":"university.32","geometry":{"type":"Point","coordinates":[671065.047589359,1516385.3496523383]},"geometry_name":"the_geom","properties":{"name":"มหาวิทยาลัยกรุงเทพ (วิทยาเขตกล้วยน้ำไท)","dcode":"1033","type":"3","address":"119 ซ.สุขุมวิท 40 (ซอยบ้านกล้วยใต้) แขวงพระโขนง เขตคลองเตย กรุงเทพฯ 10110","tel":"0 2350 3500-99","fax":"0 2249 6274","web":"www.bu.ac.th"}},{"type":"Feature","id":"university.33","geometry":{"type":"Point","coordinates":[667520.144594575,1533961.1573935952]},"geometry_name":"the_geom","properties":{"name":"มหาวิทยาลัยธุรกิจบัณฑิตย์","dcode":"1041","type":"3","address":"110/1-4 ถ.ประชาชื่น แขวงทุ่งสองห้อง เขตหลักสี่ กรุงเทพฯ 10210","tel":"0 2954 7300-29","fax":"0 2589 9605-6","web":"www.kbu.ac.th"}},{"type":"Feature","id":"university.34","geometry":{"type":"Point","coordinates":[675919.326197005,1519508.9779300755]},"geometry_name":"the_geom","properties":{"name":"มหาวิทยาลัยเกษมบัณฑิต (วิทยาเขตพัฒนาการ)","dcode":"1034","type":"3","address":"1761 ถ.พัฒนาการ แขวงสวนหลวง เขตสวนหลวง กรุงเทพฯ 10250","tel":"0 2320 2777","fax":"0 2321 4444","web":"www.kbu.ac.th"}},{"type":"Feature","id":"university.35","geometry":{"type":"Point","coordinates":[688014.6781727453,1527054.4976552268]},"geometry_name":"the_geom","properties":{"name":"มหาวิทยาลัยเกษมบัณฑิต (วิทยาเขตร่มเกล้า)","dcode":"1010","type":"3","address":"60 ถนนร่มเกล้า แขวงมีนบุรี เขตมีนบุรี กรุงเทพฯ 10510","tel":"02-904-2222","fax":"02-904-2200","web":"www.kbu.ac.th"}},{"type":"Feature","id":"university.36","geometry":{"type":"Point","coordinates":[672883.7340832042,1534286.4119098175]},"geometry_name":"the_geom","properties":{"name":"มหาวิทยาลัยเกริก","dcode":"1005","type":"3","address":"43/1111 ถ.รามอินทรา กม.1 เขตบางเขน กรุงเทพฯ  10220","tel":"0 2552 3500-9","fax":"0 2552 3511","web":"www.krirk.ac.th"}},{"type":"Feature","id":"university.37","geometry":{"type":"Point","coordinates":[700602.4551662605,1531186.9146212244]},"geometry_name":"the_geom","properties":{"name":"มหาวิทยาลัยเทคโนโลยีมหานคร","dcode":"1003","type":"3","address":"51 หมู่ 1 ถ.เชื่อมสัมพันธ์ แขวงกระทุ่มราย เขตหนองจอก กรุงเทพฯ 10530","tel":"0 2988 3666","fax":"0 2988 4040","web":"www.mut.ac.th"}},{"type":"Feature","id":"university.38","geometry":{"type":"Point","coordinates":[677130.883807919,1523922.2898557778]},"geometry_name":"the_geom","properties":{"name":"มหาวิทยาลัยรัตนบัณฑิต","dcode":"1006","type":"3","address":"306 ซ.ลาดพร้าว 107 บางกะปิ กรุงเทพฯ 10240","tel":"0 2375 4480-7","fax":"0 2375 4489","web":"www.rbac.ac.th"}},{"type":"Feature","id":"university.39","geometry":{"type":"Point","coordinates":[668759.4477935599,1527357.671036696]},"geometry_name":"the_geom","properties":{"name":"มหาวิทยาลัยเซนต์จอห์น","dcode":"1030","type":"3","address":"1110/5 ถ.วิภาวดีรังสิต เขตจตุจักร กรุงเทพฯ  10900","tel":"0 2938 7058-65","fax":"0 2512 2275","web":"www.stjohn.ac.th"}},{"type":"Feature","id":"university.40","geometry":{"type":"Point","coordinates":[657139.4803232101,1517154.093331834]},"geometry_name":"the_geom","properties":{"name":"มหาวิทยาลัยสยาม","dcode":"1022","type":"3","address":"235 ถ.เพชรเกษม เขตภาษีเจริญ  กรุงเทพฯ  10160","tel":"0 2457 0068","fax":"0 2467 3174","web":"www.siam.edu"}},{"type":"Feature","id":"university.41","geometry":{"type":"Point","coordinates":[646586.654561614,1515749.453830293]},"geometry_name":"the_geom","properties":{"name":"มหาวิทยาลัยเอเชียอาคเนย์","dcode":"1023","type":"3","address":"19/1 หมู่ 7 ถ.เพชรเกษม  เขตหนองแขม กรุงเทพฯ  10160","tel":"0 2807 4500-27","fax":"0 2807 4528-30","web":"www.sau.ac.th"}},{"type":"Feature","id":"university.42","geometry":{"type":"Point","coordinates":[671316.2596230041,1532286.4742317921]},"geometry_name":"the_geom","properties":{"name":"มหาวิทยาลัยศรีปทุม (วิทยาเขตบางเขน)","dcode":"1030","type":"3","address":"61 ถ.พหลโยธิน แขวงลาดยาว เขตจตุจักร กรุงเทพฯ  10900","tel":"0 2579 1111","fax":"0 2561 1721","web":"www.spu.ac.th"}},{"type":"Feature","id":"university.43","geometry":{"type":"Point","coordinates":[668642.8013380843,1523863.6185213136]},"geometry_name":"the_geom","properties":{"name":"มหาวิทยาลัยหอการค้าไทย","dcode":"1026","type":"3","address":"126/1 ถ.วิภาวดีรังสิต แขวงดินแดง เขตดินแดง กรุงเทพฯ  10400","tel":"0 2697 6000","fax":"0 2276 2126","web":"www.utcc.ac.th"}},{"type":"Feature","id":"university.44","geometry":{"type":"Point","coordinates":[655823.1430621761,1501426.3792890746]},"geometry_name":"the_geom","properties":{"name":"มหาวิทยาลัยเทคโนโลยีพระจอมเกล้าธนบุรี (วิทยาเขตบางขุนเทียน)","dcode":"1021","type":"2","address":"83 หมู่ 8 ถ.บางขุนเทียน-ชายทะเล แขวงท่าข้าม เขตบางขุนเทียน กรุงเทพฯ 10150","tel":"0 2470 7000, 0 2470 7333","fax":"0 2452 7455","web":"www.kmutt.ac.th"}},{"type":"Feature","id":"university.45","geometry":{"type":"Point","coordinates":[645594.5915995673,1516714.9828033457]},"geometry_name":"the_geom","properties":{"name":"มหาวิทยาลัยธนบุรี","dcode":"1023","type":"3","address":"29  ถ.เพชรเกษม ซอย 110 แขวงหนองค้างพลู เขตหนองแขม กรุงเทพฯ 10160","tel":"0 2809 0823-7","fax":"0 2809 0832","web":"www.tct.ac.th"}},{"type":"Feature","id":"university.46","geometry":{"type":"Point","coordinates":[645537.7607930545,1522381.1450666746]},"geometry_name":"the_geom","properties":{"name":"มหาวิทยาลัยกรุงเทพธนบุรี","dcode":"1048","type":"3","address":"16/10 หมู่ 2 แขวงทวีวัฒนา เขตทวีวัฒนา กรุงเทพฯ 10160","tel":"0 2800 6800-5","fax":"0 2800 6806","web":"www.bkkthon.ac.th"}},{"type":"Feature","id":"university.47","geometry":{"type":"Point","coordinates":[664825.3823522225,1517119.643006552]},"geometry_name":"the_geom","properties":{"name":"วิทยาลัยเซ็นหลุยส์","dcode":"1028","type":"3","address":"215/4 ถ.สาทรใต้ เขตสาทร กรุงเทพฯ 10120","tel":"0 2675 5304-12","fax":"0 2675 5313","web":"www.saintlouis.or.th"}},{"type":"Feature","id":"university.48","geometry":{"type":"Point","coordinates":[651231.1144698538,1524514.528678566]},"geometry_name":"the_geom","properties":{"name":"วิทยาลัยทองสุข","dcode":"1048","type":"3","address":"99/79 ถ.บรมราชชนนี แขวงศาลาธรรมสพม์ เขตทวีวัฒนา กรุงเทพฯ 10170","tel":"0 2448 0005-6","fax":"0 2885 1428","web":"www.thongsook.ac.th"}},{"type":"Feature","id":"university.49","geometry":{"type":"Point","coordinates":[659099.6963722974,1519253.7940841268]},"geometry_name":"the_geom","properties":{"name":"วิทยาลัยเทคโนโลยีสยาม","dcode":"1016","type":"3","address":"46 ถ.จรัลสนิทวงศ์ แขวงท่าพระ เขตบางกอกใหญ่ กรุงเทพฯ 10600","tel":"0 2878 5000","fax":"0 2878 5007","web":"www.siamtechu.net"}},{"type":"Feature","id":"university.50","geometry":{"type":"Point","coordinates":[673264.7688897308,1512379.2518549727]},"geometry_name":"the_geom","properties":{"name":"วิทยาลัยเซาธ์อีสท์บางกอก","dcode":"1047","type":"3","address":"290 ถ.สรรพาวุธ แขวงบางนา เขตบางนา กรุงเทพฯ 10260","tel":"0 2744 7356-67","fax":"0 2398 1356","web":"www.sbc.ac.th"}},{"type":"Feature","id":"university.51","geometry":{"type":"Point","coordinates":[678298.3089584727,1514922.6978885261]},"geometry_name":"the_geom","properties":{"name":"วิทยาลัยดุสิตธานี","dcode":"1032","type":"3","address":"1 ซ.แก่นทอง แขวงหนองบอน เขตประเวศ กรุงเทพฯ 10250","tel":"0 2361 7805","fax":"0 2361 7806","web":"www.dtc.ac.th"}},{"type":"Feature","id":"university.52","geometry":{"type":"Point","coordinates":[674614.4125462582,1536604.9232541064]},"geometry_name":"the_geom","properties":{"name":"วิทยาลัยนอร์ทกรุงเทพ","dcode":"1042","type":"3","address":"6/999 หมู่ 5 ซ.พหลโยธิน 52 แขวงคลองถนน เขตสายไหม กรุงเทพฯ 10220","tel":"0 2972 7200","fax":"0 2972 7751","web":"www.northbkk.ac.th"}},{"type":"Feature","id":"university.53","geometry":{"type":"Point","coordinates":[673421.6249325561,1521946.483177851]},"geometry_name":"the_geom","properties":{"name":"สถาบันรัชต์ภาคย์","dcode":"1045","type":"3","address":"68 ซ.นวศรี ถ.รามคำแหง 21 เขตวังทองหลาง กรุงเทพฯ 10310","tel":"0 2319 8201-3","fax":"0 2319 6710","web":"www.rajapark.ac.th"}},{"type":"Feature","id":"university.54","geometry":{"type":"Point","coordinates":[694992.0590905352,1518016.9654329605]},"geometry_name":"the_geom","properties":{"name":"วิทยาลัยกรุงเทพสุวรรณภูมิ","dcode":"1011","type":"3","address":"59 หมู่ 2 ถ.ประชาพัฒนา แขวงทับยาว เขตลาดกระบัง กรุงเทพฯ 10250","tel":"0 2172 9623-26","fax":"0 2172 9620","web":"www.bsc.ac.th"}},{"type":"Feature","id":"university.55","geometry":{"type":"Point","coordinates":[676089.5394796694,1519363.6610840221]},"geometry_name":"the_geom","properties":{"name":"สถาบันเทคโนโลยีไทย-ญี่ปุ่น","dcode":"1034","type":"3","address":"1771/1 ซ.พัฒนาการ 37 ถ.พัฒนาการ แขวงสวนหลวง เขตสวนหลวง กรุงเทพฯ 10250","tel":"0 2763 2600","fax":"0 2763 2700","web":"www.tni.ac.th"}},{"type":"Feature","id":"university.56","geometry":{"type":"Point","coordinates":[658457.1039736257,1510145.747772624]},"geometry_name":"the_geom","properties":{"name":"สถาบันอาศรมศิลป์","dcode":"1021","type":"3","address":"9/9 หมู่ 5 ซ. 33 ถ.พระราม2 แขวงบางข้าม เขตบางขุนเทียน กรุงเทพฯ 10150","tel":"0 2870 7512-3","fax":"0 2870 7514","web":"www.arsomsilp.ac.th"}},{"type":"Feature","id":"university.57","geometry":{"type":"Point","coordinates":[670632.2504395014,1535263.4184020292]},"geometry_name":"the_geom","properties":{"name":"สถาบันบัณฑิตศึกษาจุฬาภรณ์","dcode":"1041","type":"1","address":"54 หมู่ 4 ถ.วิภาวดีรังสิต แขวงตลาดบางเขน เขตหลักสี่ กรุงเทพฯ 10210","tel":"0 2554 1900","fax":"0 2554 1992","web":"www.cgi.ac.th"}},{"type":"Feature","id":"university.58","geometry":{"type":"Point","coordinates":[663828.6102271908,1520758.9198098728]},"geometry_name":"the_geom","properties":{"name":"มหาวิทยาลัยหัวเฉียวเฉลิมพระเกียรติ (วิทยาเขตยศเส)","dcode":"1008","type":"3","address":"54 ถ.กำแพงเพชร 6 ท่าลาดบางเขน  เขตหลักสี่","tel":"0 2621 7070","fax":"0 2621 7075","web":"-"}},{"type":"Feature","id":"university.59","geometry":{"type":"Point","coordinates":[664213.175007558,1521472.7972248036]},"geometry_name":"the_geom","properties":{"name":"มหาวิทยาลัยนานาชาติเอเชีย-แปซิฟิก","dcode":"1002","type":"3","address":"430 ถ.พิษณุโลก แขวงสี่แยกมหานาค เขตดุสิต กรุงเทพฯ  10300","tel":"0 2280 8243-6","fax":"0 2280 8247","web":"www.apiu.edu"}},{"type":"Feature","id":"university.60","geometry":{"type":"Point","coordinates":[666883.69948984,1523811.1201680668]},"geometry_name":"the_geom","properties":{"name":"มหาวิทยาลัยศรีปทุม (วิทยาเขตพญาไท)","dcode":"1014","type":"3","address":"อาคารเอ็กซิม ชั้น 12 ถ.พหลโยธิน เขตพญาไท กรุงเทพฯ 10400","tel":"0 2298 0181-3","fax":"0 2298 0185","web":"www.spu.ac.th"}},{"type":"Feature","id":"university.61","geometry":{"type":"Point","coordinates":[662948.4176458623,1520031.377572719]},"geometry_name":"the_geom","properties":{"name":"วิทยาลัยนานาชาติเซนต์เทเรซา (วิทยาเขตสุรวงศ์)","dcode":"1004","type":"3","address":"ชั้น 34 อาคารสกุลไทย-สุรวงศ์ ถ.สุรวงศ์ เขตบางรัก กรุงเทพฯ 10500","tel":"0 2233 1506","fax":"-","web":"www.stic.ac.th"}}],"crs":{"type":"name","properties":{"name":"urn:ogc:def:crs:EPSG::32647"}}}